[
  {
    "id": 833,
    "name": "Ḩeşār-e Sefīd",
    "state": "",
    "country": "IR",
    "coord": {
      "lon": 47.159401,
      "lat": 34.330502
    }
  },
  {
    "id": 2960,
    "name": "‘Ayn Ḩalāqīm",
    "state": "",
    "country": "SY",
    "coord": {
      "lon": 36.321911,
      "lat": 34.940079
    }
  },
  {
    "id": 3245,
    "name": "Taglag",
    "state": "",
    "country": "IR",
    "coord": {
      "lon": 44.98333,
      "lat": 38.450001
    }
  },
  {
    "id": 3530,
    "name": "Qabāghlū",
    "state": "",
    "country": "IR",
    "coord": {
      "lon": 46.168499,
      "lat": 36.173302
    }
  },
  {
    "id": 5174,
    "name": "‘Arīqah",
    "state": "",
    "country": "SY",
    "coord": {
      "lon": 36.48336,
      "lat": 32.889809
    }
  },
  {
    "id": 7264,
    "name": "Kalāteh-ye Dowlat",
    "state": "",
    "country": "IR",
    "coord": {
      "lon": 57.616982,
      "lat": 36.163841
    }
  },
  {
    "id": 8084,
    "name": "Behjatābād",
    "state": "",
    "country": "IR",
    "coord": {
      "lon": 51.461639,
      "lat": 36.667431
    }
  },
  {
    "id": 9874,
    "name": "Ţālesh Maḩalleh",
    "state": "",
    "country": "IR",
    "coord": {
      "lon": 50.679192,
      "lat": 36.894329
    }
  },
  {
    "id": 11263,
    "name": "Shahrīār Kandeh",
    "state": "",
    "country": "IR",
    "coord": {
      "lon": 53.19902,
      "lat": 36.631939
    }
  },
  {
    "id": 11754,
    "name": "Bālā Aḩmad Kolā",
    "state": "",
    "country": "IR",
    "coord": {
      "lon": 52.667271,
      "lat": 36.649059
    }
  },
  {
    "id": 12795,
    "name": "Aş Şūrah aş Şaghīrah",
    "state": "",
    "country": "SY",
    "coord": {
      "lon": 36.573872,
      "lat": 33.032669
    }
  },
  {
    "id": 14177,
    "name": "Āqdūz",
    "state": "",
    "country": "IR",
    "coord": {
      "lon": 44.26556,
      "lat": 39.197498
    }
  },
  {
    "id": 14256,
    "name": "Āzādshahr",
    "state": "",
    "country": "IR",
    "coord": {
      "lon": 48.570728,
      "lat": 34.790878
    }
  },
  {
    "id": 18007,
    "name": "Gollar",
    "state": "",
    "country": "IR",
    "coord": {
      "lon": 46.25,
      "lat": 37.383331
    }
  },
  {
    "id": 18093,
    "name": "Dīgāleh",
    "state": "",
    "country": "IR",
    "coord": {
      "lon": 45.106998,
      "lat": 37.552502
    }
  },
  {
    "id": 18557,
    "name": "Qarālar-e Mīrzā Ḩoseynqolī",
    "state": "",
    "country": "IR",
    "coord": {
      "lon": 45.067501,
      "lat": 37.674702
    }
  },
  {
    "id": 18918,
    "name": "Protaras",
    "state": "",
    "country": "CY",
    "coord": {
      "lon": 34.058331,
      "lat": 35.012501
    }
  },
  {
    "id": 23814,
    "name": "Kahrīz",
    "state": "",
    "country": "IR",
    "coord": {
      "lon": 47.055302,
      "lat": 34.383801
    }
  },
  {
    "id": 24851,
    "name": "Nūrābād",
    "state": "",
    "country": "IR",
    "coord": {
      "lon": 47.9725,
      "lat": 34.073399
    }
  },
  {
    "id": 29033,
    "name": "Rokan Sarā",
    "state": "",
    "country": "IR",
    "coord": {
      "lon": 49.608101,
      "lat": 37.32085
    }
  },
  {
    "id": 30321,
    "name": "Zīrjān",
    "state": "",
    "country": "IR",
    "coord": {
      "lon": 58.43586,
      "lat": 34.214401
    }
  },
  {
    "id": 30485,
    "name": "Dahasuways",
    "state": "",
    "country": "YE",
    "coord": {
      "lon": 50.729439,
      "lat": 15.72389
    }
  },
  {
    "id": 30490,
    "name": "Ash Shihr",
    "state": "",
    "country": "YE",
    "coord": {
      "lon": 49.606392,
      "lat": 14.75863
    }
  },
  {
    "id": 30543,
    "name": "Al Ghaylah",
    "state": "",
    "country": "YE",
    "coord": {
      "lon": 45.583328,
      "lat": 14.59583
    }
  },
  {
    "id": 30616,
    "name": "Judaydah",
    "state": "",
    "country": "YE",
    "coord": {
      "lon": 45.299622,
      "lat": 15.07512
    }
  },
  {
    "id": 30689,
    "name": "Dawran",
    "state": "",
    "country": "YE",
    "coord": {
      "lon": 44.441959,
      "lat": 13.77436
    }
  },
  {
    "id": 30696,
    "name": "Najd al Jumai",
    "state": "",
    "country": "YE",
    "coord": {
      "lon": 44.324139,
      "lat": 13.91581
    }
  },
  {
    "id": 30714,
    "name": "Zalmat al Alya",
    "state": "",
    "country": "YE",
    "coord": {
      "lon": 44.09404,
      "lat": 14.1023
    }
  },
  {
    "id": 30729,
    "name": "Suq ar Rabu",
    "state": "",
    "country": "YE",
    "coord": {
      "lon": 44.01511,
      "lat": 14.51155
    }
  },
  {
    "id": 30735,
    "name": "Ash Shuqayrah",
    "state": "",
    "country": "YE",
    "coord": {
      "lon": 43.786362,
      "lat": 13.13452
    }
  },
  {
    "id": 30740,
    "name": "Mashraah",
    "state": "",
    "country": "YE",
    "coord": {
      "lon": 43.99588,
      "lat": 13.53235
    }
  },
  {
    "id": 30748,
    "name": "Ar Rawnah",
    "state": "",
    "country": "YE",
    "coord": {
      "lon": 43.80286,
      "lat": 13.75638
    }
  },
  {
    "id": 30762,
    "name": "Ar Ramadi",
    "state": "",
    "country": "YE",
    "coord": {
      "lon": 43.784569,
      "lat": 13.95641
    }
  },
  {
    "id": 30777,
    "name": "Al Ahad",
    "state": "",
    "country": "YE",
    "coord": {
      "lon": 43.64167,
      "lat": 14.25833
    }
  },
  {
    "id": 30788,
    "name": "Ad Dil",
    "state": "",
    "country": "YE",
    "coord": {
      "lon": 43.818279,
      "lat": 14.67199
    }
  },
  {
    "id": 30789,
    "name": "Al Jabin",
    "state": "",
    "country": "YE",
    "coord": {
      "lon": 43.599041,
      "lat": 14.70401
    }
  },
  {
    "id": 32516,
    "name": "Badrābād-e `Olyā",
    "state": "",
    "country": "IR",
    "coord": {
      "lon": 48.279442,
      "lat": 33.42944
    }
  },
  {
    "id": 32723,
    "name": "Īstgāh-e Rāh Āhan-e Garmsār",
    "state": "",
    "country": "IR",
    "coord": {
      "lon": 52.309422,
      "lat": 35.23455
    }
  },
  {
    "id": 32767,
    "name": "Qarchak",
    "state": "",
    "country": "IR",
    "coord": {
      "lon": 51.56889,
      "lat": 35.439442
    }
  },
  {
    "id": 34703,
    "name": "Suq Sirwah",
    "state": "",
    "country": "YE",
    "coord": {
      "lon": 45.01667,
      "lat": 15.45417
    }
  },
  {
    "id": 34717,
    "name": "Majzar",
    "state": "",
    "country": "YE",
    "coord": {
      "lon": 44.775002,
      "lat": 15.85
    }
  },
  {
    "id": 34724,
    "name": "Bidbadah",
    "state": "",
    "country": "YE",
    "coord": {
      "lon": 44.700001,
      "lat": 15.425
    }
  },
  {
    "id": 34821,
    "name": "Matwah",
    "state": "",
    "country": "YE",
    "coord": {
      "lon": 43.642132,
      "lat": 15.0676
    }
  },
  {
    "id": 34827,
    "name": "Suwayr",
    "state": "",
    "country": "YE",
    "coord": {
      "lon": 43.609859,
      "lat": 16.181801
    }
  },
  {
    "id": 34846,
    "name": "Wadarah",
    "state": "",
    "country": "YE",
    "coord": {
      "lon": 43.483212,
      "lat": 15.71073
    }
  },
  {
    "id": 34862,
    "name": "Suq Shamar",
    "state": "",
    "country": "YE",
    "coord": {
      "lon": 43.368061,
      "lat": 15.885
    }
  },
  {
    "id": 34886,
    "name": "Mustaba",
    "state": "",
    "country": "YE",
    "coord": {
      "lon": 43.248951,
      "lat": 16.228161
    }
  },
  {
    "id": 34888,
    "name": "An Nazir",
    "state": "",
    "country": "YE",
    "coord": {
      "lon": 43.26226,
      "lat": 16.909161
    }
  },
  {
    "id": 34915,
    "name": "Dayr al Ḩisī",
    "state": "",
    "country": "YE",
    "coord": {
      "lon": 43.099998,
      "lat": 16.049999
    }
  },
  {
    "id": 35056,
    "name": "Tabrīz Jānī",
    "state": "",
    "country": "IR",
    "coord": {
      "lon": 46.23333,
      "lat": 38.133331
    }
  },
  {
    "id": 36741,
    "name": "Andīmeshk",
    "state": "",
    "country": "IR",
    "coord": {
      "lon": 48.383331,
      "lat": 32.533329
    }
  },
  {
    "id": 37755,
    "name": "Ravīndūzaq",
    "state": "",
    "country": "IR",
    "coord": {
      "lon": 48.080002,
      "lat": 38.4398
    }
  },
  {
    "id": 39161,
    "name": "Māmā’ī",
    "state": "",
    "country": "IR",
    "coord": {
      "lon": 54.397739,
      "lat": 36.892578
    }
  },
  {
    "id": 40847,
    "name": "Reẕāābād",
    "state": "",
    "country": "IR",
    "coord": {
      "lon": 57.31778,
      "lat": 37.499722
    }
  },
  {
    "id": 41210,
    "name": "Khorramdarreh",
    "state": "",
    "country": "IR",
    "coord": {
      "lon": 49.195999,
      "lat": 36.213001
    }
  },
  {
    "id": 41964,
    "name": "Kūchaklī",
    "state": "",
    "country": "IR",
    "coord": {
      "lon": 50.533329,
      "lat": 35.466671
    }
  },
  {
    "id": 44992,
    "name": "Koshtārgāh",
    "state": "",
    "country": "IR",
    "coord": {
      "lon": 49.166672,
      "lat": 30.549999
    }
  },
  {
    "id": 45013,
    "name": "Jozf-e Soflá",
    "state": "",
    "country": "IR",
    "coord": {
      "lon": 48.224098,
      "lat": 30.365499
    }
  },
  {
    "id": 49518,
    "name": "Republic of Rwanda",
    "state": "",
    "country": "RW",
    "coord": {
      "lon": 30,
      "lat": -2
    }
  },
  {
    "id": 49593,
    "name": "Yeed",
    "state": "",
    "country": "SO",
    "coord": {
      "lon": 43.033329,
      "lat": 4.55
    }
  },
  {
    "id": 49747,
    "name": "Xuddur",
    "state": "",
    "country": "SO",
    "coord": {
      "lon": 43.88945,
      "lat": 4.12129
    }
  },
  {
    "id": 50064,
    "name": "Xarardheere",
    "state": "",
    "country": "SO",
    "coord": {
      "lon": 47.857498,
      "lat": 4.6544
    }
  },
  {
    "id": 50360,
    "name": "Gobolka Woqooyi Galbeed",
    "state": "",
    "country": "SO",
    "coord": {
      "lon": 44.5,
      "lat": 10
    }
  },
  {
    "id": 50672,
    "name": "Wanlaweyn",
    "state": "",
    "country": "SO",
    "coord": {
      "lon": 44.893799,
      "lat": 2.6185
    }
  },
  {
    "id": 50814,
    "name": "Waajid",
    "state": "",
    "country": "SO",
    "coord": {
      "lon": 43.246281,
      "lat": 3.80958
    }
  },
  {
    "id": 51230,
    "name": "Gobolka Togdheer",
    "state": "",
    "country": "SO",
    "coord": {
      "lon": 45.416672,
      "lat": 9.33333
    }
  },
  {
    "id": 51299,
    "name": "Tayeeglow",
    "state": "",
    "country": "SO",
    "coord": {
      "lon": 44.51112,
      "lat": 4.01897
    }
  },
  {
    "id": 51537,
    "name": "Somalia",
    "state": "",
    "country": "SO",
    "coord": {
      "lon": 48,
      "lat": 6
    }
  },
  {
    "id": 51966,
    "name": "Gobolka Shabeellaha Hoose",
    "state": "",
    "country": "SO",
    "coord": {
      "lon": 44.416672,
      "lat": 1.83333
    }
  },
  {
    "id": 51967,
    "name": "Gobolka Shabeellaha Dhexe",
    "state": "",
    "country": "SO",
    "coord": {
      "lon": 46,
      "lat": 3
    }
  },
  {
    "id": 52187,
    "name": "Gobolka Sanaag",
    "state": "",
    "country": "SO",
    "coord": {
      "lon": 48,
      "lat": 10.5
    }
  },
  {
    "id": 52381,
    "name": "Saacow",
    "state": "",
    "country": "SO",
    "coord": {
      "lon": 42.440659,
      "lat": 1.62794
    }
  },
  {
    "id": 52867,
    "name": "Qoryooley",
    "state": "",
    "country": "SO",
    "coord": {
      "lon": 44.529991,
      "lat": 1.78784
    }
  },
  {
    "id": 53157,
    "name": "Qandala",
    "state": "",
    "country": "SO",
    "coord": {
      "lon": 49.872822,
      "lat": 11.47197
    }
  },
  {
    "id": 53172,
    "name": "Qaloocan",
    "state": "",
    "country": "SO",
    "coord": {
      "lon": 44.04784,
      "lat": 9.52943
    }
  },
  {
    "id": 53372,
    "name": "Oodweyne",
    "state": "",
    "country": "SO",
    "coord": {
      "lon": 45.063969,
      "lat": 9.4092
    }
  },
  {
    "id": 53477,
    "name": "Gobolka Nugaal",
    "state": "",
    "country": "SO",
    "coord": {
      "lon": 49,
      "lat": 8.16667
    }
  },
  {
    "id": 53654,
    "name": "Mogadishu",
    "state": "",
    "country": "SO",
    "coord": {
      "lon": 45.34375,
      "lat": 2.03711
    }
  },
  {
    "id": 53707,
    "name": "Gobolka Mudug",
    "state": "",
    "country": "SO",
    "coord": {
      "lon": 48,
      "lat": 7
    }
  },
  {
    "id": 54225,
    "name": "Marka",
    "state": "",
    "country": "SO",
    "coord": {
      "lon": 44.77166,
      "lat": 1.71594
    }
  },
  {
    "id": 54460,
    "name": "Mahaddayweyne",
    "state": "",
    "country": "SO",
    "coord": {
      "lon": 45.534698,
      "lat": 2.9726
    }
  },
  {
    "id": 54715,
    "name": "Luuq",
    "state": "",
    "country": "SO",
    "coord": {
      "lon": 42.544498,
      "lat": 3.79376
    }
  },
  {
    "id": 54746,
    "name": "Lughaye",
    "state": "",
    "country": "SO",
    "coord": {
      "lon": 43.94397,
      "lat": 10.68573
    }
  },
  {
    "id": 55223,
    "name": "Las Khorey",
    "state": "",
    "country": "SO",
    "coord": {
      "lon": 48.196701,
      "lat": 11.1595
    }
  },
  {
    "id": 55671,
    "name": "Kismayo",
    "state": "",
    "country": "SO",
    "coord": {
      "lon": 42.545361,
      "lat": -0.35817
    }
  },
  {
    "id": 56083,
    "name": "Gobolka Jubbada Hoose",
    "state": "",
    "country": "SO",
    "coord": {
      "lon": 42,
      "lat": 0
    }
  }
]